[
  {"name": "순천만 국가정원 갯벌", "region": "전남 순천", "latitude": 34.886, "longitude": 127.509, "species_id": "egretta_garzetta", "best_months": "4,5,6,9,10", "observation_score": 0.95, "access_level": "easy", "transport_note": "KTX 순천역 하차 후 시내버스·택시 이용", "entry_fee": 8000, "facilities": "전망대, 탐방로, 화장실, 주차장", "safety_note": "갯벌 미끄럼 주의, 만조 시간 확인"},
  {"name": "한강하구 생태공원", "region": "경기 김포", "latitude": 37.658, "longitude": 126.623, "species_id": "hydroprogne_caspia", "best_months": "5,6,7,8,9", "observation_score": 0.88, "access_level": "easy", "transport_note": "김포골드라인 화곡역 환승 후 버스", "entry_fee": 0, "facilities": "탐방로, 전망대", "safety_note": "강풍 시 강변 접근 주의"},
  {"name": "철원 평야 두루미 공원", "region": "강원 철원", "latitude": 38.203, "longitude": 127.256, "species_id": "grus_japonensis", "best_months": "10,11,12,1,2", "observation_score": 0.97, "access_level": "moderate", "transport_note": "KTX 서울역 출발 후 철원행 시외버스", "entry_fee": 3000, "facilities": "전망대, 해설, 주차장", "safety_note": "멸종위기종이므로 지정 구역 외 접근 금지"},
  {"name": "무의도 갯벌", "region": "인천 중구", "latitude": 37.446, "longitude": 126.392, "species_id": "tadorna_tadorna", "best_months": "10,11,12,1,2,3", "observation_score": 0.84, "access_level": "easy", "transport_note": "인천 1호선 인천역 도보·버스", "entry_fee": 0, "facilities": "갯벌 체험로, 편의점", "safety_note": "간조 시간대에만 갯벌 진입 가능"},
  {"name": "지리산 노고단", "region": "전남 구례", "latitude": 35.312, "longitude": 127.553, "species_id": "capreolus_capreolus", "best_months": "4,5,6,9,10", "observation_score": 0.79, "access_level": "moderate", "transport_note": "구례역 하차 후 시내버스·택시", "entry_fee": 0, "facilities": "등산로, 쉼터", "safety_note": "새벽·황혼 관찰 권장, 야간 단독 탐방 주의"},
  {"name": "내장산 국립공원", "region": "전북 정읍", "latitude": 35.478, "longitude": 126.912, "species_id": "buteo_japonicus", "best_months": "3,4,5,9,10", "observation_score": 0.82, "access_level": "moderate", "transport_note": "정읍역 KTX 하차 후 공원 셔틀", "entry_fee": 4000, "facilities": "케이블카, 탐방로, 숙박 인근", "safety_note": "산악 기상 변화 대비"},
  {"name": "판암공원 일대", "region": "서울 성동", "latitude": 37.574, "longitude": 127.038, "species_id": "pica_pica", "best_months": "1,2,3,4,5,6,7,8,9,10,11,12", "observation_score": 0.72, "access_level": "easy", "transport_note": "지하철 5호선 금호역 도보", "entry_fee": 0, "facilities": "공원, 산책로", "safety_note": "도심 공원으로 당일치기 적합"},
  {"name": "청평 수달 서식지", "region": "경기 가평", "latitude": 37.735, "longitude": 127.426, "species_id": "lutrinae_lutra", "best_months": "4,5,6,9,10", "observation_score": 0.76, "access_level": "hard", "transport_note": "ITX 청평역 하차 후 도보 이동", "entry_fee": 0, "facilities": "하천 산책로", "safety_note": "수달은 예민하므로 조용히 관찰"},
  {"name": "강화도 갯벌 생태공원", "region": "인천 강화", "latitude": 37.707, "longitude": 126.486, "species_id": "nycticorax_nycticorax", "best_months": "5,6,7,8,9", "observation_score": 0.86, "access_level": "easy", "transport_note": "서울역 인근 시외버스 강화행", "entry_fee": 2000, "facilities": "탐방로, 전망대, 카페", "safety_note": "황혼·새벽 관찰 시 방한 준비"},
  {"name": "제주 곶자왈", "region": "제주 서귀포", "latitude": 33.361, "longitude": 126.529, "species_id": "zosterops_japonicus", "best_months": "4,5,6,7,8,9", "observation_score": 0.8, "access_level": "moderate", "transport_note": "제주공항 렌터카 또는 시내버스", "entry_fee": 0, "facilities": "숲길, 해설판", "safety_note": "곶자왈 진입로 미끄럼 주의"}
]
